$GPRMC,121329.243,A,5030.9272,N,03030.3555,E,0.15,150.78,180916,,,A*67
$GPGGA,121330.243,5030.9272,N,03030.3557,E,1,07,1.2,155.2,M,27.8,M,,0000*5D
$GPRMC,121330.243,A,5030.9272,N,03030.3557,E,0.02,150.78,180916,,,A*6B
$GPGGA,121331.243,5030.9271,N,03030.3556,E,1,07,1.2,155.1,M,27.8,M,,0000*5D
$GPGGA,121332.243,5030.9270,N,03030.3557,E,1,07,1.2,155.7,M,27.8,M,,0000*58
$GPRMC,121332.243,A,5030.9270,N,03030.3557,E,0.16,150.78,180916,,,A*6E
$GPGGA,121333.243,5030.9231,N,03030.3643,E,1,07,1.2,161.5,M,27.8,M,,0000*5F
$GPRMC,121333.243,A,5030.9231,N,03030.3643,E,0.31,150.78,180916,,,A*69
$GPGGA,121334.243,5030.9214,N,03030.3668,E,1,07,1.2,164.2,M,27.8,M,,0000*54
$GPRMC,121334.243,A,5030.9214,N,03030.3668,E,0.27,150.78,180916,,,A*67
$GPGGA,121335.244,5030.9204,N,03030.3680,E,1,08,1.0,165.9,M,27.8,M,,0000*52
$GPRMC,121335.244,A,5030.9204,N,03030.3680,E,0.29,150.78,180916,,,A*68
$GPGGA,121336.244,5030.9197,N,03030.3687,E,1,08,1.0,167.0,M,27.8,M,,0000*54
$GPRMC,121336.244,A,5030.9197,N,03030.3687,E,0.26,150.78,180916,,,A*6A
$GPGGA,121337.244,5030.9190,N,03030.3690,E,1,08,1.0,167.5,M,27.8,M,,0000*51
$GPRMC,121337.244,A,5030.9190,N,03030.3690,E,0.37,150.78,180916,,,A*6A
$GPGGA,121338.243,5030.9184,N,03030.3691,E,1,08,1.0,167.5,M,27.8,M,,0000*5D
$GPRMC,121338.243,A,5030.9184,N,03030.3691,E,0.10,150.78,180916,,,A*63
$GPGGA,121337.244,5030.9179,N,03030.3691,E,1,08,1.0,167.5,M,27.8,M,,0000*57
$GPRMC,121337.244,A,5030.9179,N,03030.3691,E,0.22,150.78,180916,,,A*68
$GPGGA,121338.244,5030.9175,N,03030.3692,E,1,08,1.0,167.5,M,27.8,M,,0000*57
$GPRMC,121338.244,A,5030.9175,N,03030.3692,E,0.05,150.78,180916,,,A*6D
$GPGGA,121339.244,5030.9171,N,03030.3691,E,1,08,1.0,167.0,M,27.8,M,,0000*54
$GPRMC,121339.244,A,5030.9171,N,03030.3691,E,0.05,150.78,180916,,,A*6B
$GPGGA,121340.244,5030.9167,N,03030.3691,E,1,08,1.0,165.9,M,27.8,M,,0000*56
$GPRMC,121340.244,A,5030.9167,N,03030.3691,E,0.19,150.78,180916,,,A*6F
$GPGGA,121341.244,5030.9167,N,03030.3693,E,1,08,1.0,166.6,M,27.8,M,,0000*59
$GPRMC,121341.244,A,5030.9167,N,03030.3693,E,0.37,150.78,180916,,,A*60
$GPGGA,121342.244,5030.9167,N,03030.3695,E,1,08,1.0,167.8,M,27.8,M,,0000*53
$GPRMC,121342.244,A,5030.9167,N,03030.3695,E,0.15,150.78,180916,,,A*65
$GPGGA,121343.244,5030.9166,N,03030.3697,E,1,09,1.0,168.3,M,27.8,M,,0000*54
$GPRMC,121343.244,A,5030.9166,N,03030.3697,E,0.31,150.78,180916,,,A*61
$GPGGA,121344.244,5030.9165,N,03030.3698,E,1,09,1.0,168.8,M,27.8,M,,0000*54
$GPRMC,121344.244,A,5030.9165,N,03030.3698,E,0.29,15.78,180916,,,A*63
$GPGGA,121345.244,5030.9160,N,03030.3699,E,1,09,1.0,167.6,M,27.8,M,,0000*50
$GPRMC,121345.244,A,5030.9160,N,030303699,E,040,150.78,180916,,,A*69
$GPGGA,121346.244,5030.9156,N,03030.3699,E,1,09,1.0,166.3,M,27.8,M,,0000*52
$GPRMC,121346.244,A,5030.9156,N,03030.3699,E,0.37,150.78,180916,,,A*6F
$GPGGA,121347.244,5030.9151,N,03030.3699,E,1,09,1.0,164.3,M,27.8,M,,0000*56
$GPRMC,121347.244,A,5030.9151,N,03030.3699,E,0.12,150.78,180916,,,A*6E
$GPGGA,121348.244,5030.9150,N,03030.3698,E,1,08,1.0,164.2,M,27.8,M,,0000*59
$GPRMC,121348.244,A,5030.9150,N,03030.3698,E,0.04,150.78,180916,,,A*66
$GPGGA,121349.244,5030.9149,N,03030.3698,E,1,08,1.0,164.1,M,27.8,M,,0000*53
$GPRMC,121349.244,A,5030.9149,N,03030.3698,E,0.15,150.78,180916,,,A*6F
$GPGGA,121350.244,5030.9149,N,03030.3698,E,1,08,1.0,164.1,M,27.8,M,,0000*5B
$GPRMC,121350.244,A,5030.9149,N,03030.3698,E,0.27,150.78,180916,,,A*66
$GPGGA,121351.244,5030.9148,N,03030.3698,E,1,08,1.0,164.1,M,27.8,M,,0000*5B
$GPRMC,121351.244,A,5030.9148,N,03030.3698,E,0.15,150.78,180916,,,A*67
$GPGGA,121352.244,5030.9147,N,03030.3698,E,1,08,1.0,163.9,M,27.8,M,,0000*58
$GPRMC,121352.244,A,5030.9147,N,03030.3698,E,0.01,150.78,180916,,,A*6E
$GPGGA,121353.244,5030.9145,N,03030.3697,E,1,08,1.0,163.0,M,27.8,M,,0000*5D
$GPRMC,121353.244,A,5030.9145,N,03030.3697,E,0.25,150.78,180916,,,A*64
$GPGGA,121354.244,5030.9142,N,03030.3696,E,1,08,1.0,162.2,M,27.8,M,,0000*5F
$GPRMC,121354.244,A,5030.9142,N,03030.3696,E,0.17,150.78,180916,,,A*64
$GPGGA,121355.244,030.9140,N,03030.3693,E,1,08,1.0,160.3,M,27.8,M,,0000*5A
$GPRMC,121355.244,A,5030.9140,N,03030.3693,E,0.10,150.78,180916,,,A*65
$GPGGA,121356.244,5030.9138,N,03030.3690,E,1,08,1.0,158.8,M,27.8,M,,0000*55
$GPRMC,121356.244,A,5030.9138,N,03030.3690,E,0.43,150.78,180916,,,A*6C
$GPGGA,121357.244,5030.9137,N,03030.3689,E,1,08,1.0,157.7,M,27.8,M,,0000*53
$GPRMC,121357.244,A,5030.9137,N,03030.3689,E,0.05,150.78,180916,,,A*68
$GPGGA,121358.244,5030.9135,N,03030.3686,E,1,08,1.0,156.6,M,27.8,M,,0000*51
$GPRMC,12135.244,A,530.9135,N,03030.3686,E,0.26,150.78,180916,,,A*6B
$GPGGA,121359.244,5030.9134,N,03030.3684,E,1,08,1.0,155.6,M,27.8,M,,0000*50
$GPRMC,121359.244,A,5030.9134,N,03030.3684,E,0.29,150.78,180916,,,A*66
$GPGGA,121400.244,5030.9131,N,03030.3682,E,1,08,1.0,154.6,M,27.8,M,,0000*59
$GPRMC,121400.244,A,5030.9131,N,03030.3682,E,0.11,150.78,180916,,,A*65
$GPGGA,121401.244,5030.9133,N,03030.3679,E,1,08,1.0,150.2,M,27.8,M,,0000*5E
$GPRMC,12140.244,A,5030.9133,N,03030.3679,E,0.23,150.78,180916,,,A*63
$GPGGA,121402.244,5030.9133,N,03030.3676,E,1,08,1.0,146.9,M,27.8,M,,0000*5E
$GPRMC,121402.244,A,5030.9133,N,03030.3676,E,0.21,150.78,180916,,,A*6D
$GPGGA,121403.244,5030.9134,N,03030.3675,E,1,08,1.0,144.5,M,27.8,M,,0000*55
$GPRMC,121403.244,A,5030.9134,N,03030.3675,E,0.23,150.78,180916,,,A*6A
$GPGGA,121404.244,5030.9134,N,03030.3676,E,1,08,1.0,142.8,M,27.8,M,,0000*5A
$GPRMC,121404.244,A,5030.9134,N,03030.3676,E,0.84,150.78,180916,,,A*63
$GPGGA,121405.244,5030.9130,N,03030.3680,E,1,08,1.0,142.9,M,27.8,M,,0000*57
$GPRMC,121405.244,A,5030.9130,N,03030.3680,E,2.24,146.22,180916,,,A*6F
$GPGGA,121406.244,5030.9123,N,03030.3687,E,1,08,1.0,142.9,M,27.8,M,,0000*51
$GPRMC,121406.244,A,5030.9123,N,03030.3687,E,2.85,142.91,180916,,,A*6E
$GPGGA,121407.244,5030.9116,N,03030.3697,E,1,08,1.0,142.9,M,27.8,M,,0000*57
$GPRMC,121407.244,A,5030.9116,N,03030.3697,E,3.29,135.95,180916,,,A*6B
$GPGGA,121408.244,5030.9110,N,03030.3710,E,1,08,1.0,142.9,M,27.,M,,0000*50
$GPRMC,121408.244,A,5030.9110,N,03030.3710,E,3.86,128.85,180916,,,A*64
$GPGGA,121409.244,5030.9106,N,03030.3725,E,1,08,1.0,142.9,M,27.8,M,,000050
$GPRMC,121409.244,A,5030.9106,N,03030.3725,E,3.88,123.60,180916,,,A*6A
$GPGGA,121410.244,5030.9110,N,03030.3742,E,1,08,1.0,144.4,M,27.8,M,,0000*55
$GPRMC,121410.244,A,5030.9110,N,03030.3742,E,4.15,114.11,180916,,,A*65
$GPGGA,121411.244,5030.9118,N,03030.3760,E,1,08,1.0,145.6,M,27.8,M,,00005F
$GPRMC,121411.244,A,5030.9118,N,03030.3760,E,4.38,98.04,180916,,,A*52
$GPGGA,121412.244,5030.9125,N,03030.3776,E,1,09,1.0,146.9,M,27.8,M,,0000*58
$GPRMC,121412.244,A,5030.9125,N,03030.3776,E,3.87,87.82,180916,,,A*5B
$GPGGA,121413.244,5030.9128,N,03030.3790,E,1,07,1.3,147.2,M,27.8,M,,0000*5B
$GPRMC,121413.244,A,5030.9128,N,03030.3790,E,3.26,82.17,180916,,,A*5D
$GPGGA,121414.243,5030.9126,N,03030.3801,E,1,07,1.3,146.6,M,27.8,M,,0000*57
$GPRMC,121414.243,A,5030.9126,N,03030.3801,E,2.56,80.13,180916,,,A*54
$GPGGA,121415.243,5030.9124,N,03030.3813,E,1,07,1.3,145.7,M,27.8,M,,0000*55
$GPRMC,121415.243,A,5030.9124,N,03030.3813,E,2.73,75.78,180916,,,A*54
$GPGGA,121416.243,5030.9122,N,03030.3825,E,1,07,1.3,145.1,M,27.8,M,,0000*53
$GPRMC,121416.243,A,5030.9122,N,03030.3825,E,2.80,74.78,18916,,,A*59
$GPGGA,121417.243,5030.9120,N,03030.3837,E,1,08,1.1,145.2,M,27.8,M,,0000*5D
$GPRMC,121417.243,A,5030.9120,N,03030.3837,E,2.76,76.77,180916,,,A*5D
$GPGGA,121418.243,5030.9111,N,03030.3850,E,1,07,1.3,146.5,M,27.8,M,,0000*58
$GPRMC,121418.243,A,5030.9111,N,03030.3850,E,2.78,84.02,180916,,,A*50
$GPGGA,121419.243,5030.9102,N,03030.3864,E,1,07,1.3,146.8,M,27.8,M,,0000*51
$GPRMC,121419.243,A,5030.9102,N,03030.3864,E,3.29,95.56,180916,,,A*50
$GPGGA,121420.243,5030.9091,N,03030.3880,E,1,07,1.3,146.5,M,27.8,M,,0000*57
$GPRMC,121420.243,A,5030.9091,N,03030.3880,E,4.08,111.08,180916,,,A*69
$GPGGA,121421.243,5030.9078,N,03030.3898,E,1,7,1.3,146.2,M,27.8,M,,0000*5F
$GPRMC,121421.243,A,5030.9078,N,03030.3898,E,4.85,126.90,180916,,,A*66
$GPGGA,121422.244,5030.9063,N,03030.3915,E,1,07,1.3,145.5,M,27.,M,,0000*51
$GPRMC,121422.244,A,5030.9063,N,03030.3915,E,5.70,137.94,180916,,,A*63
$GPGGA,121423.244,5030.9047,N,03030.3932,E,1,07,1.3,145.0,M,27.8,M,,0000*56
$GPRMC,121423.244,A,5030.9047,N,03030.3932,E,6.50,143.16,180916,,,A*69
$GPGGA,121424.244,5030.9031,N,03030.3948,E,1,07,1.3,14.6,M,27.8,M,,0000*5A
$GPGGA,121425.244,5030.9013,N,03030.3964,E,1,07,1.3,144.4,M,27.8,M,,0000*57
$GPRMC,121425.244,A,5030.9013,N,03030.3964,E,7.23,150.82,180916,,,A*67
$GPGGA,121426.244,5030.8995,N,03030.3980,E,1,07,1.3,144.4,M,27.8,M,,0000*58
$GPRMC,121426.244,A,5030.8995,N,03030.3980,E,7.22,150.69,180916,,,A*6C
$GPGGA,121427.244,5030.8977,N,03030.3995,E,1,07,1.3,144.4,M,27.8,M,,0000*51
$GPRMC,121427.244,A,5030.8977,N,03030.3995,E,6.98,149.94,180916,,,A6F
$GPGGA,121428.244,5030.8962,N,03030.4011,E,1,07,1.3,144.4,M,27.8,M,,0000*58
$GPRMC,121428.244,A,5030.8962,N,03030.4011,E,6.57,148.32,180916,,,A*68
$GPGGA,121429.244,5030.8947,N,03030.4028,E,1,07,1.3,144.6,M,27.8,M,,0000*56
$GPRMC,121429.244,A,5030.8947,N,03030.4028,E,6.35,145.89,180916,,,A*6D
$GPGGA,121430.243,5030.8933,N,03030.4049,E,1,07,1.3,144.7,M,27.8,M,,00005C
$GPRMC,121430.243,A,5030.8933,N,03030.4049,E,6.75,141.46,180916,,,A*65
$GPGGA,121431.243,5030.8922,N,03030.4071,E,1,07,1.3,144.9,M,27.8,M,,0000*58
$GPRMC,121431.243,A,5030.8922,N,03030.4071,E,6.49,137.52,180916,,,A*64
$GPGGA,121432.244,5030.8914,N,03030.4094,E,1,07,1.3,145.2,M,27.8,M,,0000*58
$GPRMC,121432.244,A,5030.8914,N,03030.4094,E,6.27,133.13,180916,,,A*67
$GPGGA,121433.244,5030.8912,N,03030.4117,E,1,07,1.3,145.5,M,27.8,M,,0000*52
$GPRMC,121433.244,A,5030.8912,N,03030.4117,E,5.45,126.90,180916,,,A*62
$GPGGA,121434.244,5030.8905,N,03030.4134,E,1,07,1.3,145.9,M,27.8,M,,0000*5E
$GPRMC,121434.244,A,5030.8905,N,03030.4134,E,4.91,124.21,180916,,,A*62
$GPGGA,121435.244,5030.8902,N,03030.4152,E,1,07,1.3,146.1,M,27.8,M,,0000*53
$GPRMC,121435.244,A,5030.8902,N,03030.4152,E,4.54,121.53,180916,,,A*6D
$GPGGA,121436.244,5030.8902,N,03030.4171,E,1,07,1.3,146.4,M,27.8,M,,0000*54
$GPRMC,121436.244,A,5030.8902,N,03030.4171,E,4.30,117.37,180916,,,A*6A
$GPGGA,121437.244,5030.8902,N,03030.4189,E,1,07,1.3,146.8,M,27.8,M,,0000*5E
$GPRMC,121437.244,A,5030.8902,N,03030.4189,E,4.04,113.55,180916,,,A*6B
$GPGGA,121438.244,5030.8906,N,03030.4210,E,1,07,1.3,147.2,M,27.8,M,,0000*5D
$GPRMC,121438.244,A,5030.8906,N,03030.4210,E,4.39,108.00,180916,,,A*67
$GPGGA,121439.244,5030.8913,N,03030.4235,E,1,07,1.3,14.5,M,27.8,M,,0000*58
$GPRMC,121439.244,A,5030.8913,N,03030.4235,E,5.16,98.59,180916,,,A*5D
$GPGGA,121440.244,5030.8923,N,03030.4265,E,1,07,1.3,147.9,M,27.8,M,,0000*5C
$GPRMC,121440.244,A,5030.8923,N,03030.4265,E,6.15,86.97,180916,,,A*58
$GPGGA,121441.244,5030.8930,N,03030.4299,E,1,07,1.3,147.9,M,27.8,M,,0000*5C
$GPRMC,121441.244,A,5030.8930,N,03030.4299,E,6.87,79.48,180916,,,A*51
$GPGGA,121442.244,5030.8917,N,03030.4337,E,1,07,1.3,145.8,M,27.8,M,,0000*5C
$GPRMC,121442.244,A,5030.8917,N,03030.4337,E,6.77,81.50,180916,,,A*53
$GPGGA,121443.244,5030.8908,N,03030.4372,E,1,06,1.5,144.4,M,27.8,M,,0000*58
$GPRMC,121443.244,A,5030.8908,N,03030.4372,E,6.62,86.90,180916,,,A*52
$GPGGA,121444.244,5030.8900,N,03030.4405,E,1,06,1.5,143.3,M,27.8,M,,0000*50
$GPRMC,121444.244,A,5030.8900,N,03030.4405,E,6.54,92.10,180916,,,A*52
$GPGGA,121445.244,5030.8887,N,03030.4437,E,1,06,1.5,142.0,M,27.8,M,,0000*5C
$GPRMC,121445.244,A,5030.8887,N,03030.4437,E,6.30,97.00,180916,,,A*5A
$GPGGA,121446.244,5030.8869,N,03030.4463,E,1,6,1.5,140.4,M,27.8,M,,0000*58
$GPRMC,121446.244,A,5030.8869,N,03030.4463,E,6.02,103.19,180916,,,A*6D
$GPGGA,121447.244,5030.8846,N,03030.4488,E,1,05,1.7,138.6,M,27.8,M,,0000*5D
$GPRMC,121447.244,A,5030.8846,N,03030.4488,E,6.37,112.79,180916,,,A*64
$GPGGA,121448.244,030.8821,N,03030.507,E,1,05,1.7,137.0,M,27.8,M,,0000*5C
$GPRMC,121448.244,A,5030.8821,N,03030.4507,E,6.64,125.58,180916,,,A*6D
$GPGGA,121449.244,5030.8797,N,03030.4523,E,1,05,1.7,136.0,M,27.8,M,,0000*58
$GPRMC,121449.244,A,5030.8797,N,03030.4523,E,6.74,136.28,180916,,,A*6C
$GPGGA,121450.000,5030.8777,N,03030.4534,E,1,05,1.7,134.9,M,27.8,M,,0000*51
$GPRMC,121450.000,A,5030.8777,N,03030.4534,E,6.83,143.49,180916,,,A*63
$GPGGA,121451.000,5030.8756,N,03030.4548,E,1,05,1.7,129.3,M,27.8,M,,0000*5E
$GPRMC,121451.000,A,5030.8756,N,03030.4548,E,7.09,149.05,180916,,,A*6B
$GPGGA,121452.000,5030.8736,N,03030.4565,E,1,06,1.5,124.5,M,27.8,M,,0000*5E
$GPRMC,121452.000,A,5030.8736,N,03030.4565,E,7.46,149.78,180916,,,A*60
$GPGGA,121453.000,5030.8713,N,03030.4581,E,1,05,1.7,121.0,M,27.8,M,,0000*53
$GPRMC,121453.000,A,5030.8713,N,03030.4581,E,7.22,150.00,180916,,,A*69
$GPGGA,121454.000,5030.8689,N,03030.4601,E,1,06,1.5,11.7,M,27.8,M,,0000*5F
$GPRMC,121454.000,A,5030.8689,N,03030.4601,E,6.99,148.28,180916,,,A*65
$GPGGA,121455.000,5030.8668,N,03030.621,E,1,06,1.5,113.4,M,27.8,M,,0000*55
$GPRMC,121455.000,A,5030.8668,N,03030.4621,E,6.94,145.67,180916,,,A*62
$GPGGA,121456.000,5030.8655,N,03030.4632,E,1,07,1.4,112.4,M,27.8,M,,0000*5B
$GPRMC,121456.000,A,5030.8655,N,03030.4632,E,7.14,141.71,180916,,,A*67
$GPGGA,121457.000,5030.8644,N,03030.4652,E,1,07,1.4,111.4,M,27.8,M,,0000*5F
$GPRMC,121457.000,A,5030.8644,N,03030.4652,E,7.43,137.87,180916,,,A*6A
$GPGGA,121458.000,5030.8635,N,03030.4677,E,1,07,1.4,110.5,M,27.8,M,,0000*51
$GPRMC,121458.000,A,5030.8635,N,03030.4677,E,7.06,135.67,180916,,,A*69
$GPGGA,121459.000,5030.8627,N,03030.4700,E,1,07,1.4,110.1,M,27.8,M,,000056
$GPRMC,121459.000,A,5030.8627,N,03030.4700,E,5.94,135.77,180916,,,A*62
$GPGGA,121500.000,5030.8622,N,03030.4717,E,1,07,1.4,110.2,M,27.8,M,,0000*5B
$GPRMC,121500.000,A,5030.8622,N,03030.4717,E,3.94,136.39,180916,,,A*63
$GPGGA,121501.000,5030.8618,N,03030.4728,E,1,07,1.4,110.1,M,27.8,M,,0000*5C
$GPRMC,121501.000,A,5030.8618,N,03030.4728,E,3.14,136.06,180916,,,A*63
$GPGGA,121502.000,5030.8614,N,03030.4740,E,1,07,1.4,109.9,M,27.,M,,0000*5D
$GPRMC,121502.000,A,5030.8614,N,03030.4740,E,3.71,134.80,180916,,,A*6D
$GPGGA,121503.000,5030.8607,N,03030.4751,E,1,07,1.4,109.9,M,27.8,M,,0000*5E
$GPRMC,121503.000,A,5030.8607,N,03030.4751,E,4.32,136.21,180916,,,A*67
$GPGGA,121504.000,5030.8598,N,03030.4763,E,1,08,1.0,110.0,M,27.8,M,,0000*57
$GPRMC,121504.000,A,5030.8598,N,03030.4763,E,4.52,138.34,180916,,,A*68
$GPGGA,121505.000,5030.8590,N,03030.4775,E,1,08,1.0,110.2,M,27.8,M,,0000*5B
$GPRMC,121505.000,A,5030.8590,N,03030.4775,E,4.74,139.20,180916,,,A*66
$GPGGA,121506.000,5030.8581,N,03030.4789,E,1,08,1.0,110.4,M,27.8,M,,0000*5D
$GPRMC,121506.000,A,5030.8581,N,03030.4789,E,4.78,137.91,180916,,,A*6E
$GPGGA,121507.000,5030.8573,N,03030.4802,E,1,08,1.0,110.3,M,27.8,M,,0000*5A
$GPRMC,121507.000,A,5030.8573,N,03030.4802,E,4.41,137.52,180916,,,A*6B
$GPGGA,121508.000,5030.8566,N,03030.4813,E,1,08,1.0,109.9,M,27.8,M,,0000*53
$GPRMC,121508.000,A,5030.8566,N,03030.4813,E,4.03,139.44,180916,,,A*6F
$GPGGA,121509.000,5030.8557,N,03030.4825,E,1,07,1.4,109.1,M,27.8,M,,0000*56
$GPRMC,21509.000,A,5030.8557,N,03030.4825,E,4.25,142.54,180916,,,A*60
$GPGGA,121510.000,5030.8546,N,03030.4834,E,1,07,1.4,10.3,M,27.8,M,,0000*5D
$GPRMC,121510.000,A,5030.8546,N,03030.4834,E,4.66,152.36,180916,,,A*6A
$GPGGA,121511.000,5030.8534,N,03030.4841,E,1,08,1.0,107.9,M,27.8,M,,0000*55
$GPRMC,121511.000,A,5030.8534,N,03030.4841,E,5.92,168.57,180916,,,A*68
$GPGGA,121512.000,5030.8515,N,03030.4839,E,1,08,1.0,107.4,M,27.8,M,,0000*57
$GPRMC,121512.000,A,5030.8515,N,03030.4839,E,7.38,189.99,180916,,,A*68
$GPGGA,121513.000,5030.8495,N,03030.4826,E,1,08,1.0,107.5,M,27.8,M,,0000*50
$GPRMC,121513.000,A,5030.8495,N,03030.4826,E,8.68,207.42,180916,,,A*67
$GPGGA,121514.000,5030.8474,N,03030.4804,E,1,08,1.0,107.4,M,27.8,M,,0000*59
$GPRMC,121514.000,A,5030.8474,N,03030.4804,E,9.66,214.64,180916,,,A*66
$GPGGA,121515.000,5030.8452,N,03030.4778,E,1,08,1.0,107.3,M,27.8,M,,0000*5F
$GPRMC,121515.000,A,5030.8452,N,03030.4778,E,9.97,217.67,180916,,,A*69
$GPGGA,121516.000,5030.8432,N,03030.4750,E,1,08,1.0,107.1,M,27.8,M,,0000*52
$GPRMC,121516.000,A,5030.8432,N,03030.4750,E,9.79,219.07,180916,,,A*6E
$GPGGA,121517.000,5030.8414,N,03030.4722,E,1,08,1.0,107.2,M,27.8,M,,0000*51
$GPRMC,121517.000,A,5030.8414,N,03030.4722,E,9.45,224.77,180916,,,A*68
$GPGGA,121518.000,5030.8398,N,03030.4691,E,1,07,1.2,107.2,M,27.8,M,,0000*59
$GPRMC,121518.000,A,5030.8398,N,03030.4691,E,9.26,228.02,180916,,,A*66
$GPGGA,121519.000,5030.8382,N,03030.4661,E,1,07,1.2,107.2,M,27.8,M,,0000*5C
$GPRMC,121519.000,A,5030.8382,N,03030.4661,E,9.41,226.80,180916,,,A*66
$GPGGA,121520.000,5030.8364,N,03030.4629,E,1,07,1.2,107.2,M,27.8,M,,0000*52
$GPRMC,121520.000,A,5030.8364,N,03030.4629,E,9.99,225.69,180916,,,A*69
$GPGGA,121521.000,5030.8346,N,03030.4599,E,1,08,1.0,107.3,M,27.8,M,,0000*57
$GPRMC,121521.000,A,5030.8346,N,03030.4599,E,9.58,223.88,180916,,,A*64
$GPGGA,121522.000,5030.8331,N,03030.4574,E,1,08,1.0,107.2,M,27.8,M,,0000*56
$GPRMC,121522.000,A,5030.8331,N,03030.4574,E,6.49,223.99,180916,,,A*6B
$GPGGA,121523.000,5030.8323,N,03030.4561,E,1,07,1.2,107.1,M,27.8,M,,0000*5E
$GPRMC,121523.000,A,5030.8323,N,03030.4561,E,2.34,220.95,180916,,,A*6C
$GPGGA,121524.000,5030.8324,N,03030.4560,E,1,06,1.5,107.0,M,27.8,M,,0000*58
$GPRMC,121524.000,A,5030.8324,N,03030.4560,E,0.44,220.95,180916,,,A*68
$GPGGA,121525.000,5030.8325,N,03030.4562,E,1,06,1.5,107.1,M,27.8,M,,0000*5B
$GPRMC,121525.000,A,5030.8325,N,03030.4562,E,0.05,220.95,180916,,,A*6F
$GPGGA,121526.000,5030.8325,N,03030.4562,E,1,06,1.5,107.2,M,27.8,M,,0000*5B
$GPRMC,121526.000,A,5030.8325,N,03030.4562,E,0.01,220.95,180916,,,A*68
$GPGGA,121527.000,5030.8325,N,03030.4562,E,1,06,1.5,107.2,M,27.8,M,,0000*5A
$GPRMC,121527.000,A,5030.8325,N,03030.4562,E,0.00,220.95,180916,,,A*68
$GPGGA,121528.000,5030.8325,N,03030.4562,E,1,06,1.5,107.2,M,27.8,M,,0000*55
$GPRMC,121528.000,A,5030.8325,N,03030.4562,E,0.00,220.95,180916,,,A*67
$GPGGA,121529.000,5030.8325,N,03030.4562,E,1,06,1.5,107.2,M,27.8,M,,0000*54
$GPRMC,121529.000,A,5030.8325,N,03030.4562,E,0.00,220.95,180916,,,A*66
$GPGGA,121530.000,5030.8325,N,03030.4562,E,1,06,1.5,107.2,M,27.8,M,,0000*5C
$GPRMC,121530.000,A,5030.8325,N,03030.4562,E,0.00,220.95,180916,,,A*6E
$GPGGA,121531.000,5030.8325,N,03030.4562,E,1,06,1.5,107.2,M,27.8,M,,0000*5D
$GPRMC,121531.000,A,5030.8325,N,03030.4562,E,0.00,220.95,180916,,,A*6F
$GPGGA,121532.000,5030.8325,N,03030.4562,E,1,07,1.2,107.2,M,27.8,M,,0000*58
$GPRMC,121532.000,A,5030.8325,N,03030.4562,E,0.00,220.95,180916,,,A*6C
$GPGGA,121533.000,5030.8325,N,03030.4562,E,1,07,1.2,107.2,M,27.8,M,,0000*59
$GPRMC,121533.000,A,5030.8325,N,03030.4562,E,0.00,220.95,180916,,,A*6D
$GPGGA,121534.000,5030.8325,N,03030.4562,E,1,07,1.2,107.2,M,27.8,M,,0000*5E
$GPRMC,121534.000,A,5030.8325,N,03030.4562,E,0.00,220.95,180916,,,A*6A
$GPGGA,121535.000,5030.8325,N,03030.4562,E,1,07,1.2,107.2,M,27.8,M,,0000*5F
$GPRMC,121535.000,A,5030.8325,N,03030.4562,E,0.00,220.95,180916,,,A*6B
$GPGGA,121536.000,5030.8324,N,03030.4557,E,1,07,1.2,106.1,M,27.8,M,,0000*59
$GPRMC,121536.000,A,5030.8324,N,03030.4557,E,1.68,224.07,180916,,,A*6F
$GPGGA,121537.000,5030.8317,N,03030.4545,E,1,08,0.9,105.3,M,27.8,M,,0000*5F
$GPRMC,121537.000,A,5030.8317,N,03030.4545,E,4.85,221.22,180916,,,A*69
$GPGGA,121538.000,5030.8304,N,03030.4525,E,1,08,0.9,104.5,M,27.8,M,,0000*53
$GPRMC,121538.000,A,5030.8304,N,03030.4525,E,7.51,221.02,180916,,,A*6A
$GPGGA,121539.000,5030.8286,N,03030.4499,E,1,08,0.9,104.0,M,27.8,M,,0000*5A
$GPRMC,121539.000,A,5030.8286,N,03030.4499,E,9.27,220.48,180916,,,A*66
$GPGGA,121540.000,5030.8264,N,03030.4469,E,1,08,0.9,103.2,M,27.8,M,,0000*52
$GPRMC,121540.000,A,5030.8264,N,03030.4469,E,10.88,219.59,180916,,,A*5C
$GPGGA,121541.000,5030.8238,N,03030.4435,E,1,07,1.2,102.7,M,27.8,M,,0000*52
$GPRMC,121541.000,A,5030.8238,N,03030.4435,E,12.94,219.14,180916,,,A*5B
$GPGGA,121542.000,5030.8206,N,03030.4397,E,1,07,1.2,102.0,M,27.8,M,,0000*54
$GPRMC,121542.000,A,5030.8206,N,03030.4397,E,14.76,219.51,180916,,,A*51
$GPGGA,121543.000,5030.8173,N,03030.4354,E,1,06,1.5,101.3,M,27.8,M,,0000*5D
$GPRMC,121543.000,A,5030.8173,N,03030.4354,E,16.10,219.71,180916,,,A*5E
$GPGGA,121544.000,5030.8138,N,03030.4308,E,1,06,1.5,100.7,M,27.8,M,,0000*59
$GPRMC,121544.000,A,5030.8138,N,03030.4308,E,16.64,220.15,180916,,,A*54
$GPGGA,121545.000,5030.8101,N,03030.4254,E,1,06,1.5,100.3,M,27.8,M,,0000*5E
$GPRMC,121545.000,A,5030.8101,N,03030.4254,E,18.97,222.45,180916,,,A*52
$GPGGA,121546.000,5030.8059,N,03030.4196,E,1,07,1.4,99.9,M,27.8,M,,0000*67
$GPRMC,121546.000,A,5030.8059,N,03030.4196,E,20.17,221.24,180916,,,A*57
$GPGGA,121547.000,5030.8016,N,03030.4136,E,1,07,1.4,99.5,M,27.8,M,,0000*6B
$GPRMC,121547.000,A,5030.8016,N,03030.4136,E,21.10,221.71,180916,,,A*51
$GPGGA,121548.000,5030.7973,N,03030.4071,E,1,07,1.4,99.3,M,27.8,M,,0000*65
$GPRMC,121548.000,A,5030.7973,N,03030.4071,E,21.71,221.85,180916,,,A*55
$GPGGA,121549.000,5030.7930,N,03030.4003,E,1,07,1.4,99.3,M,27.8,M,,0000*66
$GPRMC,121549.000,A,5030.7930,N,03030.4003,E,22.26,222.05,180916,,,A*5C
$GPGGA,121550.000,5030.7885,N,03030.3934,E,1,06,1.5,99.4,M,27.8,M,,0000*6C
$GPRMC,121550.000,A,5030.7885,N,03030.3934,E,22.85,222.95,180916,,,A*51
$GPGGA,121551.000,5030.7839,N,03030.3864,E,1,06,1.5,99.5,M,27.8,M,,0000*6F
$GPRMC,121551.000,A,5030.7839,N,03030.3864,E,23.30,224.06,180916,,,A*50
$GPGGA,121552.000,5030.7793,N,03030.3791,E,1,06,1.5,99.7,M,27.8,M,,0000*64
$GPRMC,121552.000,A,5030.7793,N,03030.3791,E,23.54,226.00,180916,,,A*5F
$GPGGA,121553.000,5030.7749,N,03030.3716,E,1,06,1.5,99.9,M,27.8,M,,0000*63
$GPRMC,121553.000,A,5030.7749,N,03030.3716,E,23.43,228.04,180916,,,A*5A
$GPGGA,121554.000,5030.7707,N,03030.3639,E,1,07,1.2,100.0,M,27.8,M,,0000*5C
$GPRMC,121554.000,A,5030.7707,N,03030.3639,E,22.96,230.65,180916,,,A*5C
$GPGGA,121555.000,5030.7668,N,03030.3562,E,1,07,1.2,100.2,M,27.8,M,,0000*5A
$GPRMC,121555.00,A,503.7668,N,03030.356,E,22.33,232.18,180916,,,A*5F
$GPGGA,121556.000,5030.7632,N,03030.3488,E,1,07,1.2,10.3,M,27.8,M,,0000*52
$GPRMC,121556.000,A,5030.7632,N,03030.3488,E,20.48,233.50,180916,,,A*55
$GPGGA,121557.000,5030.7601,N,03030.3421,E,1,07,1.2,100.3,M,27.8,M,,0000*50
$GPRMC,121557.000,A,5030.7601,N,03030.3421,E,17.70,233.99,180916,,,A*5D
$GPGGA,121558.000,5030.7573,N,03030.3360,E,1,07,1.2,100.3,M,27.8,M,,0000*5B
$GPRMC,121558.000,A,5030.7573,N,03030.3360,E,17.17,234.28,180916,,,A*5A
$GPGGA,121559.000,5030.7545,N,03030.3298,E,1,07,1.2,100.3,M,27.8,M,,0000*59
$GPRMC,121559.000,A,5030.7545,N,03030.3298,E,17.75,235.62,180916,,,A*53
$GPGGA,121600.000,5030.7517,N,03030.3231,E,1,07,1.2,100.3,M,27.8,M,,0000*52
$GPRMC,121600.000,A,5030.7517,N,03030.3231,E,18.69,238.29,180916,,,A*58
$GPGGA,121601.000,5030.7491,N,03030.3159,E,1,07,1.2,100.2,M,27.8,M,,0000*50
$GPRMC,121601.000,A,5030.7491,N,03030.3159,E,19.45,242.75,180916,,,A*50
$GPGGA,121602.000,5030.7468,N,03030.3080,E,1,08,1.1,100.0,M,27.8,M,,0000*5E
$GPRMC,121602.000,A,5030.7468,N,03030.3080,E,20.11,248.09,180916,,,A*5A
$GPGGA,121603.000,5030.7449,N,03030.2995,E,1,07,1.5,99.9,M,27.8,M,,0000*63
$GPRMC,121603.000,A,5030.7449,N,03030.2995,E,20.71,254.67,180916,,,A*57
$GPGGA,121604.000,5030.7438,N,03030.2906,E,1,07,1.5,99.8,M,27.8,M,,0000*69
$GPRMC,121604.000,A,5030.7438,N,03030.2906,E,21.26,261.70,180916,,,A*5F
$GPGGA,121605.000,5030.7433,N,03030.2812,E,1,08,1.3,998,M,27.8,M,,0000*6E
$GPRMC,121605.000,A,5030.7433,N,03030.2812,E,21.75,268.30,180916,,,A*5A
$GPGGA,121606.000,5030.7433,N,03030.2716,E,1,07,1.5,997,M,27.8,M,,0000*60
$GPRMC,121606.000,A,5030.7433,N,03030.2716,E,22.29,270.73,180916,,,A*56
$GPGGA,121607.000,5030.7434,N,03030.2617,E,1,07,1.5,99.7,M,27.8,M,,0000*66
$GPRMC,121607.000,A,5030.7434,N,03030.2617,E,22.98,271.08,180916,,,A*57
$GPGGA,121608.000,5030.7435,N,03030.2516,E,1,07,1.5,996,M,27.8,M,,0000*6B
$GPRMC,121608.000,A,5030.7435,N,03030.2516,E,23.50,270.47,180916,,,A*54
$GPGGA,121609.000,5030.7436,N,03030.2412,E,1,07,1.5,99.5,M,27.8,M,,0000*6F
$GPRMC,121609.000,A,5030.7436,N,03030.2412,E,23.68,270.40,180916,,,A*5F
$GPGGA,121610.000,5030.7436,N,03030.2308,E,1,07,1.5,99.5,M,27.8,M,,0000*6B
$GPRMC,121610.000,A,5030.7436,N,03030.2308,E,23.97,270.26,180916,,,A*5B
$GPGGA,121611.000,5030.7435,N,03030.2202,E,1,08,1.1,99.5,M,27.8,M,,0000*69
$GPRMC,121611.000,A,5030.7435,N,03030.2202,E,24.68,268.27,180916,,,A*5D
$GPGGA,121612.000,5030.7431,N,03030.2092,E,1,09,1.0,99.6,M,27.8,M,,0000*66
$GPRMC,121612.000,A,5030.7431,N,03030.2092,E,25.37,267.22,180916,,,A*50
$GPGGA,121613.000,5030.7429,N,03030.1980,E,1,08,1.1,99.7,M,27.8,M,,0000*66
$GPRMC,121613.000,A,5030.7429,N,03030.1980,E,25.90,269.08,180916,,,A*5A
$GPGGA,121614.000,5030.7428,N,03030.1867,E,1,08,1.1,99.8,M,27.8,M,,0000*67
$GPRMC,121614.000,A,5030.7428,N,03030.1867,E,26.11,270.40,180916,,,A*5A
$GPGGA,121615.000,5030.7429,N,03030.1753,E,1,07,1.2,100.0,M,27.8,M,,0000*5A
$GPRMC,121615.000,A,5030.7429,N,03030.1753,E,26.20,270.94,180916,,,A*59
$GPGGA,121616.000,5030.7430,N,03030.1639,E,1,07,1.2,100.1,M,27.8,M,,0000*5D
$GPRMC,121616.000,A,5030.7430,N,03030.1639,E,26.20,271.30,180916,,,A*50
$GPGGA,121617.000,5030.7432,N,03030.1526,E,1,07,1.2,100.1,M,27.8,M,,0000*53
$GPRMC,121617.000,A,5030.7432,N,03030.1526,E,25.50,271.15,180916,,,A*5D
$GPGGA,121618.000,5030.7433,N,03030.1420,E,1,07,1.2,99.8,M,27.8,M,,0000*62
$GPRMC,121618.000,A,5030.7433,N,03030.1420,E,23.17,271.00,180916,,,A*55
$GPGGA,121619.000,5030.7434,N,03030.1327,E,1,08,0.9,99.4,M,27.8,M,,0000*6D
$GPRMC,121619.000,A,5030.7434,N,03030.1327,E,19.46,270.76,180916,,,A*5E
$GPGGA,121620.000,5030.7435,N,03030.1253,E,1,08,0.9,99.0,M,27.8,M,,0000*60
$GPRMC,121620.000,A,5030.7435,N,03030.1253,E,14.85,271.04,180916,,,A*51
$GPGGA,121621.000,5030.7436,N,03030.1200,E,1,09,0.9,98.5,M,27.8,M,,0000*61
$GPRMC,121621.000,A,5030.7436,N,03030.1200,E,9.45,271.13,180916,,,A*63
$GPGGA,121622.000,5030.7437,N,03030.1169,E,1,09,0.9,98.2,M,27.8,M,,0000*68
$GPRMC,121622.000,A,5030.7437,N,03030.1169,E,5.52,271.5,180916,,,A*67
$GPGGA,121623.000,5030.7437,N,03030.1147,E,1,09,0.9,979,M,27.8,M,,0000*61
$GPRMC,121623.000,A,5030.7437,N,03030.1147,E,5.34,271.85,180916,,,A*65
$GPGGA,121624.000,5030.7438,N,03030.1126,E,1,09,0.9,97.6,M,27.8,M,,0000*1
$GPRMC,121624.000,A,5030.7438,N,03030.1126,E,4.68,271.39,180916,,,A*65
$GPGGA,121625.000,5030.7438,N,03030.1112,E,1,09,0.9,97.3,M,27.8,M,,0000*62
$GPRMC,121625.000,A,5030.743,N,03030.1112,E,230,271.89,180916,,,A*63
$GPGGA,121626.000,5030.7438,N,03030.1108,E,1,09,0.9,97.1,M,27.8,M,,0000*68
$GPRMC,121626.000,A,5030.7438,N,03030.1108,E,0.31,271.89,180916,,,A*68
$GPGGA,121627.000,5030.7439,N,03030.1108,E,1,09,0.9,97.1,M,27.8,M,,0000*68
$GPRMC,121627.000,A,5030.7439,N,03030.1108,E,0.01,271.89,180916,,,A*6B
$GPGGA,121628.000,5030.7439,N,03030.1108,E,1,09,0.9,97.1,M,27.8,M,,0000*67
$GPRMC,121628.000,A,5030.7439,N,03030.1108,E,0.00,271.89,180916,,,A*65
$GPGGA,121629.000,5030.7439,N,03030.1107,E,1,09,0.9,96.7,M,27.8,M,,0000*6E
$GPRMC,121629.000,A,5030.7439,N,03030.1107,E,0.78,271.89,180916,,,A*64
$GPGGA,121630.000,5030.7439,N,03030.1099,E,1,09,0.9,96.4,M,27.8,M,,0000*63
$GPRMC,121630.000,A,5030.7439,N,03030.1099,E,303,272.02,180916,,,A*65
$GPGGA,121631.000,5030.7439,N,03030.1080,E,1,09,0.9,96.2,M,27.8,M,,0000*6C
$GPRMC,121631.000,A,5030.7439,N,03030.1080,E,5.93,271.91,180916,,,A*6A
$GPGGA,121632.000,5030.7440,N,03030.1050,E,1,09,0.9,96.0,M,27.8,M,,0000*6E
$GPRMC,121632.000,A,5030.7440,N,03030.1050,E,7.96,271.77,180916,,,A*65
$GPGGA,121633.000,5030.7440,N,03030.1012,E,1,09,0.9,95.8,M,27.8,M,,0000*62
$GPRMC,121633.000,A,5030.7440,N,03030.1012,E,9.49,271.62,180916,,,A*6A
$GPGGA,121634.000,5030.7441,N,03030.0967,E,1,09,0.9,95.6,M,27.8,M,,0000*60
$GPRMC,121634.000,A,5030.7441,N,03030.0967,E,11.10,271.16,180916,,,A*50
$GPGGA,121635.000,5030.7441,N,03030.0915,E,1,09,0.9,95.5,M,27.8,M,,0000*67
$GPRMC,121635.000,A,5030.7441,N,03030.0915,E,12.87,271.39,180916,,,A*54
$GPGGA,121636.000,5030.7442,N,03030.0855,E,1,09,0.9,95.4,M,27.8,M,,0000*63
$GPRMC,121636.000,A,5030.7442,N,03030.0855,E,14.41,271.21,180916,,,A*54
$GPGGA,121637.000,5030.7443,N,03030.0790,E,1,09,0.9,95.3,M,27.8,M,,0000*62
$GPRMC,121637.000,A,5030.7443,N,03030.0790,E,15.65,271.41,180916,,,A*53
$GPGGA,121638.000,5030.7444,N,03030.0719,E,1,09,0.9,95.3,M,27.8,M,,0000*6B
$GPRMC,121638.000,A,5030.7444,N,03030.0719,E,16.75,271.76,180916,,,A*5C
$GPGGA,121639.000,5030.7445,N,03030.0644,E,1,09,0.9,95.2,M,27.8,M,,0000*63
$GPRMC,121639.000,A,5030.7445,N,03030.0644,E,17.49,271.59,180916,,,A*56
$GPGGA,121640.000,5030.7446,N,03030.0567,E,1,09,0.9,95.2,M,27.8,M,,0000*6C
$GPRMC,121640.000,A,5030.7446,N,03030.0567,E,17.65,271.03,180916,,,A*58
$GPGGA,121641.000,5030.7446,N,03030.0491,E,1,09,0.9,95.1,M,27.8,M,,0000*66
$GPRMC,121641.000,A,5030.7446,N,03030.0491,E,17.25,270.73,180916,,,A*53
$GPGGA,121642.000,5030.7446,N,03030.0421,E,1,09,0.9,95.0,M,27.8,M,,0000*6F
$GPRMC,121642.000,A,5030.7446,N,03030.0421,E,14.72,270.51,180916,,,A*5A
$GPGGA,121643.000,5030.7447,N,03030.0364,E,1,09,0.9,95.0,M,27.8,M,,0000*69
$GPRMC,121643.000,A,5030.7447,N,030300364,E,11.76,270.51,180916,,,A*5D
$GPGGA,121644.000,5030.7447N,03030.0320,E,1,09,0.9,94.9,M,27.8,M,,0000*66
$GPRMC,121644.000,A,5030.7447,N,03030.0320,E,8.42,270.49,180916,,,A*6C
$GPGGA,121645.000,5030.7447,N,03030.0287,E,1,09,0.9,94.8,M,27.8,M,,0000*6A
$GPRMC,121645.000,A,5030.7447,N,03030.0287,E,7.09,270.41,180916,,,A*69
$GPGGA,121646.000,5030.7447,N,03030.0257,E,1,08,1.2,94.7,M,27.8,M,,0000*60
$GPRMC,121646.000,A,5030.7447,N,03030.0257,E,6.95,269.86,180916,,,A*60
$GPGGA,121647.000,5030.7447,N,03030.0226,E,1,8,1.2,94.6,M,27.8,M,,0000*66
$GPRMC,121647.000,A,5030.7447,N,03030.0226,E,7.27,269.99,180916,,,A*61
$GPGGA,121648.000,5030.7447,N,03030.0192,E,1,08,1.2,94.5,M,27.8,M,,0000*66
$GPRMC,121648.000,A,5030.7447,N,03030.0192,E,8.31,270.96,180916,,,A*6D
$GPGGA,121649.000,5030.7448,N,03030.0153,E,1,08,1.2,94.4,M,27.8,M,,0000*64
$GPRMC,121649.000,A,5030.7448,N,03030.0153,E,.69,271.90,180916,,,A*65
$GPGGA,121650.000,5030.7449,N,03030.0108,E,1,08,1.2,94.3,M,27.8,M,,0000*64
$GPRMC,121650.000,A,5030.7449,N,03030.0108,E,11.24,271.79,180916,,,A*55
$GPGGA,121651.000,5030.7450,N,03030.0055,E,1,08,1.2,94.3,M,27.8,M,,0000*64
$GPRMC,121651.000,A,5030.7450,N,03030.0055,E,12.86,272.06,180916,,,A*55
$GPGGA,121652.000,5030.7451,N,03029.9996,E,1,07,1.5,943,M,27.8,M,,0000*69
$GPRMC,121652.000,A,5030.7451,N,03029.9996,E,14.34,272.43,180916,,,A*5E
$GPGGA,121653.000,5030.7453,N,03029.9931,E,1,07,1.5,94.3,M,27.8,M,,0000*67
$GPRMC,121653.000,A,5030.7453,N,03029.9931,E,15.47,274.00,180916,,,A*54
$GPGGA,121654.000,5030.7458,N,03029.9863,E,1,07,1.5,94.4,M,27.8,M,,0000*6A
$GPRMC,121654.000,A,5030.7458,N,03029.9863,E,16.08,278.56,180916,,,A*59
$GPGGA,121655.000,5030.7467,N,03029.9796,E,1,07,1.5,94.5,M,27.8,M,,0000*63
$GPRMC,121655.000,A,5030.7467,N,3029.9796,E,16.02,284.79,180916,,,A*55
$GPGGA,121656.000,5030.7480,N,03029.9733,E,1,07,1.5,94.5,M,27.8,M,,0000*66
$GPRMC,121656.000,A,5030.7480,N,03029.9733,E,14.56,290.03,180916,,,A*5B
$GPGGA,121657.000,5030.7495,N,03029.9680,E,1,07,1.5,94.4,M,27.8,M,,0000*6B
$GPRMC,121657.000,A,5030.7495,N,03029.9680,E,12.01,294.54,180916,,,A*55
$GPGGA,121658.000,5030.7510,N,03029.9637,E,1,07,1.5,94.2,M,27.8,M,,0000*62
$GPRMC,121658.000,A,5030.7510,N,03029.9637,E,11.13300.10,180916,,,A*56
$GPGGA,121659.000,5030.7528,N,03029.9597,E,1,07,1.5,94.0,M,27.8,M,,0000*63
$GPRMC,121659.000,A,5030.7528,N,03029.9597,E,11.47,307.19,180916,,,A*5A
$GPGGA,121700.000,5030.7549,N,03029.9562,E,1,07,1.5,93.9,M,27.8,M,,0000*6D
$GPRMC,121700.000,A,5030.7549,N,03029.9562,E,10.22,316.35,180916,,,A*56
$GPGGA,121701.000,5030.7568,N,03029.9539,E,1,07,1.5,93.8,M,27.8,M,,0000*60
$GPRMC,121701.000,A,5030.7568,N,03029.9539,E,7.44,324.30,180916,,,A*68
$GPGGA,121702.000,5030.7585,N,03029.9523,E,1,07,1.5,93.8,M,27.8,M,,0000*6B
$GPRMC,121702.000,A,5030.7585,N,03029.9523,E,7.16,331.49,180916,,,A*6E
$GPGGA,121703.000,5030.7602,N,03029.9510,E,1,07,1.5,93.7,M,27.8,M,,0000*69
$GPRMC,121703.000,A,5030.7602,N,03029.9510,E,6.49,333.21,180916,,,A*64
$GPGGA,121704.000,5030.7619,N,03029.9498,E,1,07,1.2,93.7,M,27.8,M,,0000*62
$GPRMC,121704.000,A,5030.7619,N,03029.9498,E,7.19,333.52,180916,,,A*68
$GPGGA,121705.000,5030.7640,N,03029.9483,E,1,07,1.2,93.6,M,27.8,M,,0000*64
$GPRMC,121705.000,A,5030.7640,N,03029.9483,E,9.12,333.97,180916,,,A*63
$GPGGA,121706.000,5030.7664,N,03029.9465,E,1,07,1.2,93.6,M,27.8,M,,0000*69
$GPRMC,121706.000,A,5030.7664,N,03029.9465,E,10.35,335.13,180916,,,A*59
$GPGGA,121707.000,5030.7693,N,03029.9447,E,1,07,1.2,93.7,M,27.8,M,,0000*61
$GPRMC,121707.000,A,5030.7693,N,03029.9447,E,11.66,338.83,180916,,,A*53
$GPGGA,121708.000,5030.7725,N,03029.9430,E,1,07,1.2,93.9,M,27.8,M,,0000*6C
$GPRMC,121708.000,A,5030.7725,N,03029.9430,E,12.74,342.39,180916,,,A*5C
$GPGGA,121709.000,5030.7760,N,03029.9416,E,1,07,1.2,94.1,M,27.8,M,,0000*67
$GPRMC,121709.000,A,5030.7760,N,03029.9416,E,13.53,347.38,180916,,,A*58
$GPGGA,121710.000,5030.7798,N,03029.9406,E,1,06,1.5,94.2,M,27.8,M,,0000*6C
$GPRMC,121710.000,A,5030.7798,N,03029.9406,E,14.30,352.86,180916,,,A*55
$GPGGA,121711.000,5030.7838,N,03029.9401,E,1,06,1.5,94.4,M,27.8,M,,0000*69
$GPRMC,121711.000,A,5030.7838,N,03029.9401,E,14.71,357.73,180916,,,A*5C
$GPGGA,121712.000,5030.7879,N,03029.9400,E,1,06,1.5,94.6,M,27.8,M,,0000*6C
$GPRMC,121712.000,A,5030.7879,N,03029.9400,E,14.49,358.25,180916,,,A*5C
$GPGGA,121713.000,5030.7918,N,03029.9395,E,1,06,1.5,94.7,M,27.8,M,,0000*1
$GPRMC,121713.000,A,5030.7918,N,03029.9395,E,13.95,353.33,180916,,,A*5A
$GPGGA,121714.000,5030.7954,N,03029.9384,E,1,06,1.5,94.9,M,27.8,M,,0000*60
$GPRMC,121714.000,A,5030.7954,N,03029.9384,E,13.07,346.54,180916,,,A*5B
$GPGGA,121715.000,5030.7988,N,03029.9367,E,1,07,1.2,95.1,M,27.8,M,,0000*62
$GPRMC,121715.00,A,5030.7988,N,03029.9367,E,12.43,336.49,180916,,,A*5C
$GPGGA,121716.000,5030.8017,N,03029.9337,E,1,07,1.2,95.3,M,27.8,M,,0000*66
$GPRMC,121716.000,A,5030.8017,N,03029.9337,E,12.78,320.98,180916,,,A*59
$GPGGA,121717.000,5030.8040,N,03029.9293,E,1,07,1.2,95.4,M,27.8,M,,0000*6D
$GPRMC,121717.000,A,5030.8040,N,03029.9293,E,13.41,306.35,180916,,,A*5D
$GPGGA,121718.000,5030.8052,N,03029.9236,E,1,07,1.2,95.5,M,27.8,M,,0000*6F
$GPRMC,121718.000,A,5030.8052,N,03029.9236,E,14.22,286.61,180916,,,A*54
$GPGGA,121719.000,5030.8052,N,03029.9170,E,1,08,1.2,96.2,M,27.8,M,,0000*64
$GPRMC,121719.000,A,5030.8052,N,03029.9170,E,14.30,273.84,180916,,,A*56
$GPGGA,121720.000,5030.8048,N,03029.9108,E,1,07,1.5,96.3,M,27.8,M,,0000*63
$GPRMC,121720.000,A,5030.8048,N,03029.9108,E,13.76,263.09,180916,,,A*59
$GPGGA,121721.000,5030.8039,N,03029.9051,E,1,07,1.5,96.2,M,27.8,M,,0000*68
$GPRMC,121721.000,A,5030.8039,N,03029.9051,E,12.45,254.33,180916,,,A*5F
$GPGGA,121722.000,5030.8028,N,03029.9004,E,1,07,1.5,96.1,M,27.8,M,,0000*68
$GPRMC,121722.000,A,5030.8028,N,3029.9004,E,10.83,248.83,180916,,,A*52
$GPGGA,121723.000,5030.8015,N,03029.8963,E,1,08,1.1,96.0,M,27.8M,,0000*64
$GPRMC,121723.000,A,5030.8015,N,03029.8963,E,9.9,242.10,180916,,,A*6A
$GPGGA,121724.000,5030.7999,N,03029.8928,E,1,08,1.1,95.8,M,27.8,M,,0000*65
$GPRMC,121724.000,A,5030.7999,N,03029.8928,E,9.62,232.68,180916,,,A*61
$GPGGA,121725.000,5030.7981,N,03029.8898,E,1,09,0.9,95.9,M,27.8,M,,0000*6E
$GPRMC,121725.000,A,5030.7981,N,03029.8898,E,9.72,226.56,180916,,,A*6A
$GPGGA,121726.000,5030.7958,N,03029.8875,E,1,09,0.9,95.8,M,27.8,M,,0000*6B
$GPRMC,121726.000,A,5030.7958,N,03029.8875,E,10.31,216.2,180916,,,A*51
$GPGGA,121727.000,5030.7926,N,03029.8864,E,1,09,0.9,95.5,M,27.8,M,,0000*6E

$GPRMC,121727.000,A,5030.7926,N,03029.8864,E,11.43,197.96,180916,,,A*58
$GPGGA,121728.000,5030.7886,N,03029.8864,E,1,09,0.9,95.6,M,27.8,M,,0000*69
$GPRMC,121728.000,A,5030.7886,N,03029.8864,E,14.18,185.22,180916,,,A*5B
$GPGGA,121729.000,5030.7841,N,03029.8863,E,1,09,0.9,95.7,M,27.8,M,,0000*65
$GPRMC,121729.000,A,5030.7841,N,03029.8863,E,16.16,183.79,180916,,,A*52
$GPGGA,121730.000,5030.7792,N,03029.8862,E,1,09,0.9,95.7,M,27.8,M,,0000*6D
$GPRMC,121730.000,A,5030.7792,N,03029.8862,E,17.75,183.17,180916,,,A*56
$GPGGA,121731.000,5030.7739,N,03029.8858,E,1,08,1.1,95.6,M,27.8,M,,0000*6D
$GPRMC,121731.000,A,5030.7739,N,03029.8858,E,19.11,184.04,180916,,,A*56
$GPGGA,121732.000,5030.7683,N,03029.8853,E,1,08,1.1,95.5,M,27.8,M,,0000*66
$GPRMC,121732.000,A,5030.7683,N,03029.8853,E,20.20,184.54,180916,,,A*53
$GPGGA,121733.000,5030.7624,N,03029.8847,E,1,08,1.1,95.3,M,27.8,M,,0000*69
$GPRMC,121733.000,A,5030.7624,N,03029.8847,E,20.71,183.97,180916,,A*56
$GPGGA,121734.000,5030.7565,N,03029.8844,E,1,08,1.1,95.3,M,27.8,M,,0000*6B
$GPRMC,121734.000,A,5030.7565,N,03029.8844,E,20.60,183.09,180916,,,A*53
$GPGGA,121735.000,5030.7508N,03029.8842,E,1,08,1.1,95.3,M,27.8,M,,0000*67
$GPRMC,121735.000,A,530.7508,N,03029.8842,E,19.39,181.45,180916,,,A*53
$GPGGA,121736.000,5030.7457,N,03029.8842,E,1,08,1.1,95.6,M,27.8,M,,0000*6A
$GPRMC,121736.000,A,5030.7457,N,03029.8842,E,16.78,180.86,180916,,,A*5F
$GPGGA,121737.000,5030.7416,N,03029.8842,E,1,08,1.1,95.6,M,27.8,M,,0000*6E
$GPRMC,121737.000,A,5030.7416,N,03029.8842,E,12.86,181.36,180916,,,A*54
$GPGGA,121738.000,5030.7388,N,03029.8843,E,1,08,1.1,95.6,M,27.8,M,,0000*60
$GPRMC,121738.000,A,5030.7388,N,03029.8843,E,8.14,180.03,180916,,,A*6D
$GPGGA,121739.000,5030.7373,N,03029.8843,E,1,08,1.1,957,M,27.8,M,,0000*64
$GPRMC,121739.000,A,5030.7373,N,03029.8843,E,3.59,179.74,180916,,,A*6C
$GPGGA,121740.000,5030.7368,N,03029.8843,E,1,09,0.9,95.6,M,27.8,M,,0000*9
$GPRMC,121740.000,A,5030.7368,N,03029.8843,E,0.92,179.74,180916,,,A*6C
$GPGGA,121741.000,5030.7368,N,03029.8843,E,1,09,0.9,95.5,M,27.8,M,,0000*6B
$GPRMC,121741.000,A,5030.7368,N,03029.8843,E,0.01,179.74,180916,,,A*67
$GPGGA,121742.000,5030.7368,N,03029.8843,E,1,09,0.9,95.5,M,27.8,M,,0000*68
$GPRMC,121742.000,A,5030.7368,N,03029.8843,E,0.00,179.74,180916,,,A*65
$GPGGA,121743.000,5030.7368,N,03029.8843,E,1,09,0.9,95.5,M,27.8,M,,0000*69
$GPRMC,121743.000,A,5030.7368,N,03029.8843,E,0.00,179.74,180916,,,A*64
$GPGGA,121744.000,5030.7368,N,03029.8843,E,1,09,0.9,95.5,M,27.8,M,,0000*6E
$GPRMC,121744.000,A,5030.7368,N,03029.8843,E,0.00,179.74,180916,,,A*63
$GPGGA,121745.000,5030.7368,N,03029.8843,E,1,09,0.9,95.5,M,27.8,M,,0000*6F
$GPRMC,121745.000,A,5030.768,N,0309.8843,E,0.00,179.74,180916,,,A*62
$GPGGA,121746.000,5030.7368,N,03029.8843,E,1,09,0.9,95.6,M,27.8M,,0000*6F
$GPRMC,121746.000,A,5030.7368,N,03029.8843,E,0.00,179.74,180916,,,A*61
$GPGGA,121747.000,5030.7368,N,03029.8843,E,1,09,0.9,95.6,M,27.8,M,,0000*6E
$GPRMC,121747.000,A,5030.7368,N,03029.8843,E,0.00,179.74,180916,,,A*60
$GPGGA,121748.000,5030.7368,N,03029.8843,E,1,09,0.9,95.6,M,27.8,M,,0000*61
$GPRMC,121748.000,A,5030.7368,N,03029.8843,E,0.00,179.74,180916,,,A*6F
$GPGGA,121749.000,5030.7368,N,03029.8844,E,1,09,0.9,95.6,M,27.8,M,,0000*67
$GPRMC,121749.000,A,5030.7368,N,03029.8844,E,0.00,179.74,180916,,,A*69
$GPGGA,121750.000,5030.7368,N,03029.8844,E,1,09,0.9,95.6,M,27.8,M,,0000*6F
$GPRMC,121750.000,A,5030.7368,N,03029.8844,E,000,179.74,180916,,,A*61
$GPGGA,121751.000,5030.7367,N,03029.8844,E,1,10,0.8,95.6,M,27.8,M,,0000*68
$GPRMC,121751.000,A,5030.7367,N,03029.8844,E,0.00,179.74,180916,,,A*6F
$GPGGA,121752.000,5030.7367,N,03029.8844,E,1,10,0.8,95.6,M,27.8,M,,0000*6B
$GPRMC,121752.000,A,5030.7367,N,03029.8844,E,0.00,179.74,180916,,,A*6C
$GPGGA,121753.000,5030.7367,N,03029.8845,E,1,10,0.8,95.6,M,27.8,M,,0000*6B
$GPRMC,121753.000,A,5030.7367,N,03029.8845,E,0.00,179.74,180916,,,A*6C
$GPGGA,121754.000,5030.7367,N,03029.8845,E,1,10,0.8,95.6,M,27.8,M,,0000*6C
$GPRMC,121754.000,A,5030.7367,N,03029.8845,E,0.00,179.74,180916,,,A*6B
$GPGGA,121755.000,5030.7368,N,03029.8845,E,1,0,0.8,95.2,M,27.8,M,,0000*66
$GPRMC,121755.000,A,5030.7368,N,03029.8845,E,0.66,179.74,180916,,,A*65
$GPGGA,121756.000,5030.7365,N,03029.8844,E,1,10,0.8,95.0,M,27.8,M,,0000*B
$GPRMC,121756.000,A,5030.7365,N,03029.8844,E,2.88,179.43,180916,,,A*6C
$GPGGA,121757.000,5030.7356,N,03029.8843,E,1,10,0.8,95.0,M,27.8,M,,0000*6D
$GPRMC,121757.000,A,5030.7356,N,03029.8843,E,5.09,180.60,180916,,,A*63
$GPGGA,121758.000,5030.7341,N,03029.8842,E,1,10,0.8,95.0,M,27.8,M,,0000*65
$GPRMC,121758.000,A,5030.7341,N,03029.8842,E,6.88,180.27,180916,,,A*62
$GPGGA,121759.000,5030.7318,N,03029.8848,E,1,10,0.8,956,M,27.8,M,,0000*64
$GPRMC,121759.000,A,5030.7318,N,03029.8848,E,8.01,180.79,180916,,,A*61
$GPGGA,121800.000,5030.7293,N,03029.8851,E,1,10,0.8,95.9,M,27.8,M,,0000*62
$GPRMC,121800.000,A,5030.7293,N,03029.8851,E,9.09,180.64,180916,,,A*6D
$GPGGA,121801.000,5030.7266,N,03029.8851,E,1,10,0.8,96.2,M,27.8,M,,0000*61
$GPRMC,121801.000,A,5030.7266,N,03029.8851,E,10.40,180.82,180916,,,A*5B
$GPGGA,121802.000,5030.7235,N,03029.8852,E,1,10,0.8,963,M,27.8,M,,0000*66
$GPRMC,121802.000,A,5030.7235,N,03029.8852,E,11.63,180.37,180916,,,A*53
$GPGGA,121803.000,5030.7204,N,03029.8851,E,1,10,0.8,96.3,M,27.8,M,,0000*66
$GPRMC,121803.000,A,5030.7204,N,03029.8851,E,10.92,180.77,180916,,,A*58
$GPGGA,121804.000,5030.7178,N,03029.8850,E,1,10,0.8,96.7,M,27.8,M,,0000*6C
$GPRMC,121804.000,A,5030.7178,N,03029.8850,E,8.73,180.83,180916,,,A*6B
$GPGGA,121805.000,5030.7157,N,03029.8850,E,1,10,0.8,97.0,M,27.8,M,,0000*66
$GPRMC,121805.000,A,5030.7157,N,03029.8850,E,7.41,180.54,180916,,,A*63
$GPGGA,121806.000,5030.7137,N,03029.8849,E,1,10,0.8,97.2,M,27.8,M,,0000*69
$GPRMC,121806.000,A,5030.7137,N,03029.8849,E,7.55,180.02,180916,,,A*68
$GPGGA,121807.000,5030.7117,N,03029.8849,E,1,10,0.8,97.5,M,27.8,M,,0000*6D
$GPRMC,121807.000,A,5030.7117,N,03029.8849,E,7.91,179.93,180916,,,A*6D
$GPGGA,121808.000,5030.7096,N,03029.8849,E,1,10,0.8,97.6,M,27.8,M,,0000*69
$GPRMC,121808.000,A,5030.7096,N,03029.8849,E,7.79,179.84,180916,,,A*6A
$GPGGA,121809.000,5030.7077,N,03029.8848,E,1,10,0.8,97.7,M,27.8,M,,0000*67
$GPRMC,121809.000,A,50307077,N,03029.8848,E,6.78,179.76,180916,,,A*68
$GPGGA,121810.000,5030.7060,N,03029.8848,E,1,10,0.8,97.8,M,27.8,M,,0000*66
$GPRMC,121810.000,A,5030.7060,N,03029.8848,E,5.97,179.83,180916,,,A*6E
$GPGGA,121811.000,5030.7045,N,03029.8848,E,1,10,0.8,97.8,M,27.8,M,,0000*60
$GPRMC,121811.000,A,5030.7045,N,03029.8848,E,4.93,181.20,180916,,,A*63
$GPGGA,121812.000,5030.7033,N,03029.8848,E,1,10,0.8,97.9,M,27.8,M,,0000*63
$GPRMC,121812.000,A,5030.7033,N,03029.8848,E,4.43,180.32,180916,,,A*6E
$GPGGA,121813.000,5030.7020,N,03029.8848,E,1,10,0.8,97.8,M,27.8,M,,0000*61
$GPRMC,121813.000,A,5030.7020,N,03029.8848,E,4.82,179.85,180916,,,A*6A
$GPGGA,121814.000,5030.7002,N,03029.8849,E,1,10,0.8,97.7,M,27.8,M,,0000*68
$GPRMC,121814.000,A,5030.7002,N,03029.8849,E,6.66,179.99,180916,,,A*69
$GPGGA,121815.000,5030.6982,N,03029.8849,E,1,10,0.8,97.5,M,27.8,M,,0000*6B
$GPRMC,121815.000,A,5030.6982,N,03029.8849,E,7.67,179.87,180916,,,A*67
$GPGGA,121816.000,5030.6960,N,03029.8849,E,1,10,0.8,97.3,M,27.8,M,,0000*62
$GPRMC,121816.000,A,5030.6960,N,03029.8849,E,7.61,180.11,180916,,,A*67
$GPGGA,121817.000,5030.6938,N,03029.8849,E,1,10,0.8,97.2,M,27.8,M,,0000*6F
$GPRMC,121817.000,A,5030.6938,N,03029.8849,E,7.71,180.42,180916,,,A*6C
$GPGGA,121818.000,5030.6916,N,03029.8848,E,1,10,0.8,97.0,M,27.8,M,,0000*F
$GPRMC,121818.000,A,5030.6916,N,03029.8848,E,7.96,180.67,180916,,,A*60
$GPGGA,121819.000,5030.6893,N,03029.8847,E,1,10,0.8,97.0,M,27.8,M,,0000*6D
$GPRMC,121819.000,A,5030.6893,N,03029.8847,E,8.35,180.93,180916,,,A*6F
$GPGGA,121820.000,5030.6868,N,03029.847,E,1,10,0.8,96.9,M,27.8,M,,0000*6B
$GPRMC,121820.000,A,5030.6868,N,03029.8847,E,9.33,180.74,180916,,,A*6F
$GPGGA,121821.000,5030.6840,N,03029.8846,E,1,10,0.8,96.9,M,27.8,M,,0000*61
$GPRMC,121821.000,A,5030.6840,N,03029.8846,E,10.09,180.03,180916,,,A*54
$GPGGA,121822.000,5030.6812,N,03029.8846,E,1,0,0.8,96.9,M,27.8,M,,0000*65
$GPRMC,121822.000,A,5030.6812,N,03029.8846,E,10.36,178.58,180916,,,A*55
$GPGGA,121823.000,5030.6784,N,03029.8847,E,1,09,0.9,96.9,M,27.8,M,,0000*6C
$GPRMC,121823.000,A,5030.6784,N,03029.8847,E,10.48,177.28,180916,,,A*54
$GPGGA,121824.000,5030.6755,N,03029.8849,E,1,10,0.8,97.0,M,27.8,M,,0000*68
$GPRMC,121824.000,A,5030.6755,N,03029.8849,E,10.87,176.90,180916,,,A*50
$GPGGA,121825.000,5030.6723,N,03029.8851,E,1,10,0.8,97.2,M,27.8,M,,0000*63
$GPRMC,121825.000,A,5030.6723,N,03029.8851,E,11.78,176.89,180916,,,A*50
$GPGGA,121826.000,5030.6689,N,03029.8853,E,1,10,0.8,97.4,M,27.8,M,,0000*65
$GPRMC,121826.000,A,5030.689,N,03029.8853,E,13.06,177.85,180916,,,A*56
$GPGGA,121827.000,5030.6651,N,03029.8854,E,1,09,0.9,97.5,M,27.8,M,,0000*6E
$GPRMC,121827.000,A,5030.6651,N,03029.8854,E,14.42,178.69,180916,,,A*5F
$GPGGA,121828.000,5030.6609,N,03029.8854,E,1,09,0.9,97.7,M,27.8,M,,0000*6E
$GPRMC,121828.000,A,5030.6609,N,03029.8854,E,15.79,179.36,180916,,,A*5F
$GPGGA,121829.000,5030.6563,N,03029.8854,E,1,09,0.9,97.9,M,27.8,M,,0000*6E
$GPRMC,121829.000,A,5030.6563,N,03029.8854,E,17.00,180.03,180916,,,A*5D
$GPGGA,121830.000,5030.6517,N,03029.8853,E,1,09,0.9,98.2,M,27.8,M,,0000*66
$GPRMC,121830.000,A,5030.6517,N,03029.8853,E,16.46,180.91,180916,,,A*59
$GPGGA,121831.000,5030.6474,N,03029.8852,E,1,08,0.9,98.4,M,27.8,M,,0000*65
$GPRMC,121831.000,A,5030.6474,N,03029.8852,E,14.55,180.82,180916,,,A*5F
$GPGGA,121832.000,5030.6437,N,03029.851,E,1,08,0.9,98.5,M,27.8,M,,0000*63
$GPRMC,12183.000,A,5030.6437,N,03029.8851,E,11.91,180.67,180916,,,A*5E
$GPGGA,121833.000,5030.6406,N,03029.8850,E,1,08,0.9,98.7,M,27.8,M,,0000*63
$GPRMC,121833.000,A,5030.6406,N,03029.8850,E,9.78,180.95,180916,,,A*6F
$GPGGA,121834.000,5030.6381,N,03029.8849,E,1,08,0.9,98.6,M,27.8,M,,0000*65
$GPRMC,121834.000,A,5030.6381,N,03029.8849,E,8.79,181.52,180916,,,A*62
$GPGGA,121835.000,5030.6356,N,03029.8848,E,1,08,0.9,98.5,M,27.8,M,,0000*6C
$GPRMC,121835.000,A,5030.6356,N,03029.8848,E,9.01,181.90,180916,,,A*68
$GPGGA,121836.000,5030.6329,N,03029.8847,E,1,09,0.9,98.2,M,27.8M,,0000*6E
$GPRMC,121836.000,A,5030.6329,N,03029.8847,E,9.99,181.48,180916,,,A*68
$GPGGA,121837.000,5030.6299,N,03029.8846,E,1,09,0.9,98.1,M,27.8,M,,0000*67
$GPRMC,121837.000,A,5030.6299,N,03029.8846,E,11.29,181.46,180916,,,A*5E
$GPGGA,121838.000,5030.6266,N,03029.8845,E,1,09,0.9,98.1,M,27.8,M,,0000*6B
$GPRMC,121838.000,A,5030.6266,N,03029.8845,E,12.26,180.71,180916,,,A*5B
$GPGGA,121839.000,5030.6233,N,03029.8844,E,1,09,0.9,98.0,M,27.8,M,,0000*6A
$GPRMC,121839.000,A,5030.6233,N,03029.8844,E,11.89,180.84,180916,,,A*57
$GPGGA,121840.000,5030.6201,N,03029.8843,E,1,09,0.9,98.0,M,27.8M,,0000*62
$GPRMC,121840.000,A,5030.6201,N,03029.8843,E,11.74,180.69,180916,,,A*5E
$GPGGA,121841.000,5030.6169,N,03029.8842,E,1,09,0.9,98.0,M,27.8,M,,0000*6F
$GPRMC,121841.000,A,5030.6169,N,03029.8842,E,11.11,181.05,180916,,,A*5B
$GPGGA,121842.000,5030.6143,N,03029.8841,E,1,09,0.9,98.1,M,27.8,M,,0000*66
$GPRMC,121842.000,A,5030.6143,N,03029.8841,E,8.80,181.43,180916,,,A*61
$GPGGA,121843.000,5030.6124,N,03029.8839,E,1,10,0.8,98.3,M,27.8,M,,0000*62
$GPRMC,121843.000,A,5030.6124,N,03029.8839,E,6.21,182.13,18091,,,A*6D
$GPGGA,121844.000,5030.6111,N,03029.8838,E,1,10,0.8,98.3,M,27.8,M,,0000*62
$GPRMC,121844.000,A,5030.6111,N,03029.8838,E,3.68,181.23,180916,,,A*65
$GPGGA,121845.000,5030.6103,N,03029.8838,E,1,10,0.8,98.4,M,27.8,M,,0000*67
$GPRMC,121845.000,A,5030.6103,N,03029.8838,E,2.60,181.02,180916,,,A*6D
$GPGGA,121846.000,5030.6098,N,03029.8838,E,1,10,0.8,98.4,M,27.8,M,,0000*67
$GPRMC,121846.000,A,5030.6098,N,03029.8838,E,2.23,180.45,18091,,,A*68
$GPGGA,121847.000,5030.6093,N,03029.8838,E,1,10,0.8,98.4,M,27.8,M,,0000*6D
$GPRMC,121847.000,A,5030.6093,N,03029.8838,E,1.84,180.89,180916,,,A*6C
$GPGGA,121848.000,5030.6088,N,03029.8838,E,1,10,0.8,98.5,M,27.8,M,,0000*69
$GPRMC,121848.000,A,5030.6088,N,03029.8838,E,2.16,181.33,180916,,,A*61
$GPGGA,121849.000,030.6080,N,03029.8837,E,1,10,0.8,98.5,M,27.8,M,,0000*6F
$GPRMC,121849.000,A,5030.6080,N,03029.8837,E,3.97,181.20,180916,,,A*6D
$GPGGA,121850.000,5030.6065,N,03029.8837,E,1,10,0.8,984,M,27.8,M,,0000*6D
$GPRMC,121850.000,A,5030.6065,N,03029.8837,E,6.76,182.92,180916,,,A*6E
$GPGGA,121851.000,5030.6043,N,03029.8835,E,1,10,0.8,98.4,M,27.8,M,,0000*6A
$GPRMC,121851.000,A,5030.6043,N,03029.8835,E,8.84,183.53,180916,,,A*66
$GPGGA,121852.000,5030.6016,N,03029.8831,E,1,09,0.9,98.4,M,27.8,M,,0000*64
$GPRMC,121852.000,A,5030.6016,N,03029.8831,E,9.92,185.54,180916,,,A*66
$GPGGA,121853.000,5030.5985,N,03029.827,E,1,09,0.9,98.4,M,27.8,M,,0000*62
$GPRMC,121853.000,A,5030.5985,N,03029.8827,E,12.14,183.93,180916,,,A*59
$GPGGA,121854.000,5030.5948,N,03029.8824,E,1,09,0.9,98.3,M,27.8,M,,0000*60
$GPRMC,121854.000,A,5030.5948,N,03029.8824,E,14.02,184.23,180916,,,A*51
$GPGGA,121855.000,5030.5906,N,03029.8819,E,1,09,0.9,98.3,M,27.8,M,,0000*65
$GPRMC,121855.000,A,5030.5906,N,03029.8819,E,16.06,182.68,180916,,,A*5B
$GPGGA,121856.000,5030.5860,N,03029.8813,E,1,09,0.9,98.2,M,27.8,M,,0000*6C
$GPRMC,121856.000,A,5030.5860,N,03029.8813,E,15.92,184.54,180916,,,A*54
$GPGGA,121857.000,5030.5810,N,03029.8811,E,1,09,0.9,98.2,M,27.8,M,,0000*68
$GPRMC,121857.000,A,5030.5810,N,03029.8811,E,17.97,181.74,180916,,,A*50
$GPGGA,121858.000,5030.5757,N,03029.8809,E,1,09,0.9,98.2,M,27.8,M,,0000*2
$GPRMC,121858.000,A,5030.5757,N,03029.8809,E,18.63,182.36,180916,,,A*5B
$GPGGA,121859.000,5030.5704,N,03029.8803,E,1,09,0.9,98.3,M,27.8,M,,0000*6E
$GPRMC,121859.000,A,5030.5704,N,03029.8803,E,19.26,183.20,180916,,,A*50
$GPGGA,121900.000,5030.5647,N,03029.8800,E,1,09,0.9,98.3,M,27.8,M,,0000*66
$GPRMC,121900.000,A,5030.5647,N,03029.8800,E,20.22,180.43,180916,,,A*50
$GPGGA,121901.000,5030.5590,N,03029.8798,E,1,09,0.9,98.6,M,27.8,M,,0000*65
$GPRMC,121901.000,A,5030.5590,N,03029.8798,E,19.84,181.36,180916,,,A*53
$GPGGA,121902.000,5030.5533,N,03029.8796,E,1,8,0.9,99.0,M,27.8,M,,0000*67
$GPRMC,121902.000,A,530.5533,N,03029.8796,E,19.46,181.61,180916,,,A*5B
$GPGGA,121903.000,5030.5477,N,03029.794,E,1,08,0.9,992,M,27.8,M,,0000*67
$GPRMC,121903.000,A,5030.5477,N,03029.8794,E,18.91,180.97,180916,,,A*5A
$GPGGA,121904.000,5030.5416,N,03029.8803,E,1,08,0.9,100.3,M,27.8,M,,000056
$GPRMC,121904.000,A,5030.5416,N,03029.8803,E,19.79,180.07,180916,,,A*55
$GPGGA,121905.000,5030.5356,N,03029.8807,E,1,07,1.1,101.1,M,27.8,M,,0000*55
$GPRMC,121905.000,A,5030.5356,N,03029.8807,E,20.49,180.78,180916,,,A*52
$GPGGA,121906.000,5030.5300,N,03029.8801,E,1,07,1.1,102.9,M,27.8,M,,0000*58
$GPRMC,121906.000,A,5030.5300,N,03029.8801,E,21.23,181.89,180916,,,A*56
$GPGGA,121907.000,5030.5239,N,03029.8800,E,1,06,1.3,103.5,M,27.8,M,,0000*5D
$GPRMC,121907.000,A,5030.5239,N,03029.8800,E,21.54,181.57,180916,,,A*5E
$GPGGA,121908.000,5030.5182,N,03029.8795,E,1,06,1.3,105.0,M,27.8,M,,0000*51
$GPRMC,121908.000,A,5030.5182,N,03029.8795,E,21.43,180.66,180916,,,A*54
$GPGGA,121909.000,5030.5127,N,03029.8788,E,1,07,1.0,106.6,M,27.8,M,,0000*54
$GPRMC,121909.000,A,5030.5127,N,03029.8788,E,20.05,180.52,180916,,,A*52

$GPGGA,121910.000,5030.5079,N,03029.8780,E,1,06,2.0,108.1,M,27.8,M,,000055
$GPRMC,121910.000,A,5030.5079,N,03029.8780,E,17.34,182.30,180916,,,A*58
$GPGGA,121911.000,5030.5039,N,03029.8767,E,1,06,1.4,109.8,M,27.8,M,,0000*56
$GPRMC,121911.000,A,5030.5039,N,03029.8767,E,14.90,185.78,18916,,,A*52
$GPGGA,121912.000,5030.5006,N,03029.8755,E,1,06,1.4,111.4,M,27.8,M,,0000*5D
$GPRMC,121912.000,A,5030.5006,N,03029.8755,E,12.08,185.45,180916,,,A*55
$GPGGA,121913.000,5030.4979,N,03029.8741,E,1,07,1.1,113.2,M,27.8,M,,0000*59
$GPRMC,121913.000,A,5030.4979,N,03029.8741,E,9.96,187.40,180916,,,A*6B
$GPGGA,121914.000,5030.4957,N,03029.8730,E,1,08,0.9,114.5,M,27.8,M,,0000*52
$GPRMC,121914.000,A,5030.4957,N,03029.8730,E,7.99,184.53,180916,,,A*66
$GPGGA,121915.000,5030.4933,N,03029.8724,E,1,08,0.9,115.7,M,27.8,M,,0000*57
$GPRMC,121915.000,A,5030.4933,N,03029.8724,E,9.11,183.10,180916,,,A*6E
$GPGGA,121916.000,5030.4904,N,03029.8718,E,1,08,0.9,116.6,M,27.8,M,,0000*5D
$GPRMC,121916.000,A,5030.4904,N,03029.8718,E,10.55,185.98,180916,,,A*58
$GPGGA,121917.000,5030.4869,N,03029.8707,E,1,08,0.9,117.6,M,27.8,M,,0000*59
$GPRMC,121917.000,A,5030.4869,N,03029.8707,E,13.23,187.02,180916,,,A*5E
$GPGGA,121918.000,5030.4827,N,03029.8698,E,1,08,0.9,118.0,M,27.8,M,,0000*52
$GPRMC,121918.000,A,5030.4827,N,03029.8698,E,15.73,186.81,180916,,,A*55
$GPGGA,121919.000,5030.4776,N,03029.8691,E,1,08,0.9,118.5,M,27.8,M,,0000*54
$GPRMC,121919.000,A,5030.4776,N,03029.8691,E,17.58,187.60,180916,,,A*53
$GPGGA,121920.000,5030.4721,N,03029.8683,E,1,08,0.9,118.6,M,27.8,M,,0000*5C
$GPRMC,121920.000,A,5030.4721,N,03029.8683,E,20.31,185.26,180916,,,A*53
$GPGGA,121921.000,5030.4653,N,03029.8683,E,1,09,0.9,118.8,M,27.,M,,0000*56
$GPRMC,121921.000,A,5030.4653,N,03029.8683,E,23.62,181.79,180916,,,A*5D
$GPGGA,121922.000,5030.4574,N,03029.8691,E,1,08,1.1,119.6,M,27.8,M,,0000*57
$GPRMC,121922.000,A,5030.4574,N,03029.8691,E,25.90,180.90,180916,,,A*56
$GPGGA,121923.000,5030.4495,N,03029.8689,E,1,08,1.1,120.6,M,27.8,M,,0000*5B
$GPRMC,121923.000,A,5030.4495,N,03029.8689,E,27.84,181.08,180916,,,A*57
$GPGGA,121924.000,5030.4418,N,03029.8679,E,1,08,1.1,122.8,M,27.8,M,,0000*5A
$GPRMC,121924.000,A,5030.4418,N,03029.8679,E,28.84,181.90,180916,,,A*54
$GPGGA,121925.000,5030.4337,N,03029.665,E,1,08,1.1,12.9,M,27.8,M,,0000*5A
$GPRMC,121925.000,A,5030.4337,N,03029.665,E,30.39,181.76,180916,,,A*55
$GPGGA,121926.000,5030.4254,N,03029.8651,E,1,07,1.5,128.9,M,27.8,M,,0000*5C
$GPRMC,121926.000,A,5030.4254,N,03029.8651,E,30.78,183.16,180916,,,A*54
$GPGGA,121927.000,5030.4166,N,03029.8641,E,1,07,1.5,131.9,M,27.8,M,,0000*56
$GPRMC,121927.000,A,5030.4166,N,03029.8641,E,32.26,181.96,180916,,,A*55
$GPGGA,121928.000,5030.4078,N,03029.8631,E,1,07,1.5,134.7,M,27.8,M,,0000*5B
$GPRMC,121928.000,A,5030.4078,N,03029.8631,E,31.95,181.42,180916,,,A*51
$GPGGA,121929.000,5030.3989,N,03029.8625,E,1,07,1.5,136.6,M,27.8,M,,0000*5C
$GPRMC,121929.000,A,5030.3989,N,03029.8625,E,31.29,181.78,180916,,,A*5B
$GPGGA,121930.000,5030.3897,N,03029.8626,E,1,07,1.5,137.9,M,27.8,M,,0000*57
$GPRMC,121930.000,A,5030.3897,N,03029.8626,E,31.75,180.02,180916,,,A*5B
$GPGGA,121931.000,5030.3807,N,03029.8625,E,1,10,0.8,139.5,M,27.8,M,,0000*54
$GPRMC,121931.000,A,5030.3807,N,03029.8625,E,31.91,180.50,180916,,,A*5D
$GPGGA,121932.000,5030.3714,N,03029.8625,E,1,09,0.9,141.4,M,27.8,M,,0000*5D
$GPRMC,121932.000,A,5030.3714,N,03029.8625,E,31.50,182.11,180916,,,A*59
$GPGGA,121933.000,5030.3624,N,03029.8619,E,1,08,1.1,142.1,M,27.8,M,,0000*5F
$GPRMC,121933.000,A,5030.3624,N,03029.8619,E,31.42,183.07,180916,,,A*50
$GPGGA,121934.000,5030.3537,N,03029.8612,E,1,07,1.9,142.3,M,27.8,M,,0000*57
$GPRMC,121934.000,A,5030.3537,N,03029.8612,E,31.47,182.23,180916,,,A*5F
$GPGGA,121935.000,5030.3449,N,03029.8608,E,1,07,1.9,143.8,M,27.,M,,0000*5F
$GPRMC,121935.000,A,5030.3449,N,03029.8608,E,31.09,180.53,180916,,,A*52
$GPGGA,121936.000,5030.3362,N,03029.8609,E,1,07,1.9,144.8,M,27.8,M,,0000*54
$GPRMC,121936.000,A,5030.3362,N,03029.8609,E,30.67,178.88,180916,,,A*56
$GPGGA,121937.000,5030.3282,N,03029.8609,E,1,08,0.9,146.7,M,27.8,M,,0000*59
$GPRMC,121937.000,A,5030.3282,N,03029.8609,E,28.14,178.33,180916,,,A*55
$GPGGA,121938.000,5030.3211,N,03029.8610,E,1,08,0.9,147.6,M,27.8,M,,0000*54
$GPRMC,121938.000,A,5030.3211,N,03029.8610,E,24.91,177.90,180916,,,A*5F
$GPGGA,121939.000,5030.3145,N,03029.8616,E,1,06,2.6,148.5,M,27.8,M,,0000*5E
$GPRMC,121939.000,A,5030.3145,N,03029.8616,E,22.78,175.21,180916,,,A*53
$GPGGA,121940.000,5030.3087,N,03029.8626,E,1,06,2.6,148.6,M,27.8,M,,0000*5F
$GPRMC,121940.000,A,5030.3087,N,03029.8626,E,19.57,175.30,180916,,,A*54
$GPGGA,121941.000,5030.3045,N,03029.8627,E,1,06,2.6,145.7,M,27.8,M,,0000*5D
$GPRMC,121941.000,A,5030.3045,N,03029.8627,E,15.82,177.93,180916,,,A*55
$GPGGA,121942.000,5030.3014,N,03029.620,E,1,08,1.1,144.7,M,27.8,M,,0000*56
$GPRMC,121942.000,A,5030.3014,N,03029.8620,E,12.04,178.42,180916,,,A*5F
$GPGGA,121943.000,5030.2991,N,03029.8624,E,1,08,1.1,141.8,M,27.8,M,,0000*5C
$GPRMC,121943.000,A,5030.2991,N,03029.8624,E,7.12,178.12,180916,,,A*69
$GPGGA,121944.000,5030.2978,N,03029.8642,E,1,09,1.0,136.3,M,27.8,M,,0000*57
$GPRMC,121944.000,A,5030.2978,N,03029.8642,E,1.48,178.25,180916,,,A*64
$GPGGA,121945.000,5030.2979,N,03029.8654,E,1,09,1.0,133.4,M,27.8,M,,0000*52
$GPRMC,121945.000,A,5030.2979,N,03029.8654,E,0.31,178.25,180916,,,A*6C
$GPGGA,121946.000,5030.2979,N,03029.8654,E,1,08,1.1,133.4,M,27.8,M,,0000*51
$GPRMC,121946.000,A,5030.2979,N,03029.8654,E,0.01,178.25,180916,,,A*6C
$GPGGA,121947.000,5030.2979,N,03029.8654,E,1,08,1.1,133.4,M,27.8,M,,0000*50
$GPRMC,121947.000,A,5030.2979,N,03029.8654,E,0.00,178.25,180916,,,A*6C
$GPGGA,121948.000,5030.2979,N,03029.8654,E,1,08,1.1,133.3,M,27.8,M,,0000*58
$GPRMC,121948.000,A,5030.2979,N,03029.8654,E,0.00,178.25,180916,,,A*63
$GPGGA,121949.000,5030.2979,N,03029.655,E,1,08,1.1,133.3,M,27.8,M,,0000*58
$GPRMC,121949.000,A,5030.2979,N,03029.8655,E,0.00,178.25,180916,,,A*63
$GPGGA,121950.000,5030.2977,N,03029.8664,E,1,08,1.1,131.2,M,27.8,M,,0000*5F
$GPRMC,121950.000,A,5030.2977,N,03029.8664,E,0.51,178.25,180916,,,A*63
$GPGGA,121951.000,5030.2975,N,03029.8667,E,1,08,1.1,130.8,M,27.8,M,,0000*54
$GPRMC,121951.000,A,5030.2975,N,03029.8667,E,3.03,174.04,180916,,,A*68
$GPGGA,121952.000,5030.2963,N,03029.8671,E,1,08,1.1,130.4,M,27.8,M,,0000*5B
$GPRMC,121952.000,A,5030.2963,N,03029.8671,E,6.42,177.54,180916,,,A*6D
$GPGGA,121953.000,5030.2949,N,03029.8687,E,1,10,0.8,128.9,M,27.8,M,,0000*5E
$GPRMC,121953.000,A,5030.2949,N,03029.8687,E,9.56,180.79,180916,,,A*60
$GPGGA,121954.000,5030.2925,N,03029.8700,E,1,10,0.8,127.7,M,27.8,M,,0000*5C
$GPRMC,121954.000,A,5030.2925,N,03029.8700,E,11.91,181.17,180916,,,A*58
$GPGGA,121955.000,030.2891,N,03029.8709,E,1,09,0.9,126.0,M,27.,M,,0000*55
$GPRMC,121955.000,A,5030.2891,N,03029.8709,E,14.00,181.26,180916,,,A*51
$GPGGA,121956.000,5030.2851,N,03029.8714,E,1,09,0.9,125.1,M,27.8,M,,0000*54
$GPRMC,12956.000,A,5030.2851,N,03029.8714,E,16.03,180.91,180916,,,A*5E
$GPGGA,121957.000,5030.2806,N,03029.8718,E,1,09,0.9,124.4,M,27.,M,,0000*5F
$GPRMC,121957.000,A,5030.2806,N,03029.8718,E,17.65,181.08,180916,,,A*51
$GPGGA,121958.000,5030.2756,N,03029.8720,E,1,09,0.9,123.8,M,27.8,M,,0000*5A
$GPRMC,121958.000,A,5030.2756,N,03029.8720,E,19.14,180.44,180916,,,A*5E
$GPGGA,121959.000,5030.2698,N,03029.8722,E,1,09,0.9,122.0,M,27.8,M,,0000*53
$GPRMC,121959.000,A,5030.2698,N,03029.8722,E,19.46,181.18,180916,,,A*51
$GPGGA,122000.000,5030.2640,N,03029.8724,E,1,09,0.9,120.2,M,27.8,M,,0000*56
$GPRMC,122000.000,A,5030.2640,N,03029.8724,E,18.99,182.29,180916,,,A*56
$GPGGA,122001.000,5030.2583N,03029.8725,E,1,09,0.9,118.4,M,27.8,M,,0000*57
$GPRMC,122001.000,A,5030.2583,N,03029.8725,E,18.54,182.30,180916,,,A*53
$GPGGA,122002.000,5030.2527,N,03029.8726,E,1,09,0.9,116.7,M,27.8,M,,0000*54
$GPRMC,122002.000,,5030.2527,N,03029.8726,E,18.03,181.84,180916,,,A*53
$GPGGA,122003.000,5030.2479,N,03029.8728,E,1,09,0.9,114.3,M,27.8,M,,0000*57
$GPRMC,122003.000,A,5030.2479,N,03029.8728,E,16.40,181.27,180916,,,A*56
$GPGGA,122004.000,5030.2438,N,03029.8729,E,1,09,0.9,112.4,M,27.8,M,,0000*55
$GPRMC,122004.000,A,5030.2438,N,03029.8729,E,14.18,180.74,180916,,,A*5D
$GPGGA,122005.000,5030.2403,N,03029.8732,E,1,09,0.9,110.7,M,27.8,M,,0000*57
$GPRMC,122005.000,A,5030.2403,N,0302.8732,E,10.96,179.92,180916,,,A*52
$GPGGA,122006.000,5030.2381,N,03029.8733,E,1,09,0.9,110.6,M,27.8,M,,0000*59
$GPRMC,122006.000,A,5030.2381,N,03029.8733,E,6.96,178.41,180916,,,A*65
$GPGGA,122007.000,5030.2368,N,03029.8737,E,1,09,0.9,110.2,M,27.8,M,,0000*5F
$GPRMC,122007.000,A,5030.2368,N,03029.8737,E,4.15,174.56,180916,,,A*64
$GPGGA,122008.000,5030.2354,N,03029.8745,E,1,10,0.8,108.9,M,27.8,M,,0000*51
$GPRMC,122008.000,A,5030.2354,N,03029.8745,E,3.25,168.34,180916,,,A*6C
$GPGGA,122009.000,5030.2343N,03029.8753,E,1,10,0.8,107.2,M,27.8,M,,0000*55
$GPRMC,122009.000,A,5030.2343,N,03029.8753,E,2.71,158.08,180916,,,A*60
$GPGGA,122010.000,5030.2335,N,03029.8761,E,1,10,0.8,106.2,M,27.8,M,,0000*5C
$GPRMC,122010.000,A,5030.2335,N,03029.8761,E,2.72,146.43,180916,,,A*6B
$GPGGA,122011.000,5030.2330,N,03029.8769,E,1,10,0.8,105.7,M,27.8,M,,0000*56
$GPRMC,122011.000,A,5030.2330,N,03029.8769,E,2.46,138.17,180916,,,A*68
$GPGGA,122012.000,5030.2329,N,03029.8770,E,1,10,0.8,105.5,M,27.8,M,,0000*57
$GPRMC,122012.000,A,5030.329,N,03029.8770,E,0.22,13.17,180916,,,A*6B
$GPGGA,122013.000,5030.2329,N,03029.8770,E,1,09,1.0,10.6,M,27.8,M,,0000*54
$GPRMC,122013.000,A,5030.2329,N,03029.8770,E,0.01,138.17,180916,,,A*6B
$GPGGA,122014.000,5030.2329,N,03029.8770,E,1,09,1.0,105.6,M,27.8,M,,0000*53
$GPGGA,122015.000,5030.2329,N,03029.8770,E,1,10,0.8,105.6,M,27.8,M,,0000*53
$GPRMC,122015.000,A,5030.2329,N,03029.8770,E,0.00,138.17,180916,,,A*6C
$GPGGA,122016.000,5030.2329,N,03029.8770,E,1,10,0.8,105.6,M,27.8,M,,0000*50
$GPRMC,122016.000,A,5030.2329,N,03029.8770,E,0.00,138.17,180916,,,A*6F
$GPGGA,122017.000,5030.2329,N,03029.8770,E,1,0,0.8,105.6,M,27.8,M,,0000*51
$GPRMC,122017.000,A,5030.2329,N,03029.8770,E,0.00,138.17,180916,,,A*6E
